{"name":"Lumba-Lumba Diving","location":{"city":"Manado","country":"Indonesia","latitude":1.47483,"longitude":124.842079},"id":"1000136723406281"}
{"name":"Bali Scuba Masters","location":{"city":"Denpasar","country":"Indonesia","latitude":-8.7810499595905,"longitude":115.22566354492,"street":"Jalan Pratama 85","zip":"80363"},"id":"107781539253775"}
{"name":"Uber Scuba Komodo","location":{"city":"Labuanbajo","country":"Indonesia","latitude":-8.4921520805837,"longitude":119.8771905899,"street":"Jl. Soekarno Hatta Komodo National Park","zip":"86554"},"id":"446179255535545"}
{"name":"D Scuba Club","location":{"city":"Sanur","country":"Indonesia","latitude":-8.705675355,"longitude":115.260807,"street":"Jalan Kesuma Sari 4","zip":"80228"},"id":"123367707727435"}
{"name":"Bali Paradise Scuba","location":{"city":"Denpasar","country":"Indonesia","latitude":-8.70197,"longitude":115.2322,"street":"Bucuku 18 Jalan sidakarya ,Gang Drawati Sidakarya","zip":"802224"},"id":"448949455161988"}
{"name":"Oceans5Dive","location":{"city":"Lombok","country":"Indonesia","latitude":-8.3633363015125,"longitude":116.08275195075,"street":"Harbor Gili Air, Lombok","zip":"83325"},"id":"185923963360"}
{"name":"Bali Dive Travel","location":{"city":"Kuta","country":"Indonesia","latitude":-8.7215058105136,"longitude":115.18671217728,"street":"Jalan By Pass Gusti Ngurah Rai 90, SIMPANG SIUR-KUTA","zip":"80223"},"id":"139646576076119"}
{"name":"OlympDive Komodo","location":{"city":"Labuanbajo","country":"Indonesia","latitude":-8.48333,"longitude":119.9,"street":"Lang VII","zip":"86554"},"id":"793196504081616"}
{"name":"Reef Seen Divers Resort","location":{"city":"Buleleng","country":"Indonesia","latitude":-8.1435819977672,"longitude":114.65536366481},"id":"161358597321157"}
{"name":"Bali Fun Tour","location":{"city":"Badung","country":"Indonesia","latitude":-8.818667,"longitude":115.190363,"street":"Jalan Perumahan Nusa Puri E64 Nusadua","zip":"80361"},"id":"263308267343473"}
{"name":"Diving Indonesia","location":{"city":"Jakarta","country":"Indonesia","latitude":-6.30378,"longitude":106.78272,"street":"Jl. Gunung Balong raya no 10 - 12 Lebak Bulus 3 Cilandak","zip":"12440"},"id":"1425164821130379"}
{"name":"Dragon Dive Komodo","location":{"city":"Komodo","country":"Indonesia","latitude":-8.488767090887,"longitude":119.87696528435,"street":"Jalan mutiara","zip":"86554"},"id":"1436748606600007"}
{"name":"Koranu Fyak Bungalows & Wobbegong Dive Adventures","location":{"city":"Sorong","country":"Indonesia","latitude":-6.2586244,"longitude":106.87016880667,"street":"Kri Island"},"id":"1744286199119805"}
{"name":"Sea World Club Beach & Diving Resort","location":{"city":"Maumere","country":"Indonesia","latitude":-8.624877,"longitude":122.221111},"id":"700338596691255"}
{"name":"Bali Diving Academy Lembongan","location":{"city":"Denpasar","country":"Indonesia","latitude":-8.67762352,"longitude":115.44629081,"street":"Jungut Batu"},"id":"275614379175789"}
{"name":"Mv.bajo Baji-Dive & Cruise","location":{"city":"Labuanbajo","country":"Indonesia","latitude":-8.3881166,"longitude":119.7967631,"street":"Waerana Jatty","zip":"86554"},"id":"766536546787852"}
{"name":"Bali International Diving Professionals, Sanur, Bali","location":{"city":"Denpasar","country":"Indonesia","latitude":-8.7055607762782,"longitude":115.25122476886,"street":"Jalan Danau Poso 26","zip":"80238"},"id":"188830681131553"}
{"name":"Geko Dive Bali","location":{"city":"Padangbai","country":"Indonesia","latitude":-8.5304916933401,"longitude":115.51074959556,"street":"Jalan Silayukti","zip":"80872"},"id":"426363607385819"}
{"name":"Bali Spice Dive","location":{"city":"Buleleng","country":"Indonesia","latitude":-8.163703,"longitude":115.021466,"zip":"81152"},"id":"914907125295667"}
{"name":"Fadhila Cottages Togean Dive Resort","location":{"city":"Ampana","country":"Indonesia","latitude":-0.871389,"longitude":121.571,"street":"DESA KATUPAT ~ TOGIAN ISLANDS","zip":"94683"},"id":"594941283930345"}
{"name":"Aquaddiction Dive","location":{"city":"Mataram","country":"Indonesia","latitude":-8.348492,"longitude":116.04428,"street":"Jl Pantai","zip":"83352"},"id":"1560285170968584"}
{"name":"Bali Diving","location":{"city":"Sanur","country":"Indonesia","latitude":-8.7044549131457,"longitude":115.25333046913,"street":"Jalan By Pass Ngurah Rai no.46","zip":"80226"},"id":"1487314714864545"}
{"name":"Pandawa Beach","location":{"city":"Badung","country":"Indonesia","latitude":-8.8436441681464,"longitude":115.18834590912,"street":"kuta selatan","zip":"80000"},"id":"1664715813806330"}
{"name":"Diving Tour Of Bali","location":{"city":"Denpasar","country":"Indonesia","latitude":-8.62183,"longitude":115.25046,"street":"Jalan Siulan Gg.Pacah 5","zip":"80237"},"id":"673708566101431"}
{"name":"Lembeh Diving","location":{"city":"Manado","country":"Indonesia","latitude":1.462558,"longitude":124.82668,"street":"Lembeh and Bangka islands"},"id":"867296263417265"}
{"name":"MatahariKu diving cruise","location":{"city":"Mentok","country":"Indonesia","latitude":-2.0236066666667,"longitude":105.16017},"id":"267288383406746"}
{"name":"Kapal Tambora Dive Cruises","location":{"city":"Sorong","country":"Indonesia","latitude":-0.88554361853832,"longitude":131.24604146168},"id":"131352493701119"}
{"name":"Dive Shop, Dive Course & Dive Trip","location":{"city":"Manado","country":"Indonesia","latitude":1.4925,"longitude":124.838,"street":"Jl. Sudirman"},"id":"306819779522380"}
{"name":"Archipelago Dive Sarana Diving Operator, PT","location":{"city":"Badung","country":"Indonesia","latitude":-8.725752,"longitude":115.170646,"street":"Jalan Kartika Plaza Kuta Paradiso Hotel, Shop 4","zip":"80361"},"id":"1081970961909459"}
{"name":"Q-Dive Bali","location":{"city":"Manggis","country":"Indonesia","latitude":-8.5303394666667,"longitude":115.51005493333,"street":"Jalan Silayukti 7","zip":"80871"},"id":"466117190076251"}
{"name":"Bali Dive Expedition","location":{"city":"Denpasar","country":"Indonesia","latitude":-8.77439,"longitude":115.222979,"street":"Jalan Pratama 95-A, Kerobokan, Kuta, Denpasar","zip":"80361"},"id":"592007657616211"}
{"name":"Dive Alor Dive","location":{"city":"Kupang","country":"Indonesia","latitude":-10.17062,"longitude":123.58593,"street":"Jl Diponegoro 34"},"id":"867533913355269"}
{"name":"Bali Dive Expedition","location":{"city":"Denpasar","country":"Indonesia","latitude":-8.61605,"longitude":115.20226,"street":"Jalan Pratama 95","zip":"80361"},"id":"259060334427664"}
{"name":"Togean tours and Dive resort","location":{"city":"Ampana","country":"Indonesia","latitude":-0.871389,"longitude":121.571,"street":"Jl. Moh hatta"},"id":"892604147484568"}
{"name":"Bali Inter Dive PT","location":{"city":"Denpasar","country":"Indonesia","latitude":-8.740449,"longitude":115.178616,"street":"Jalan Raya Tuban 15XY BL-A7","zip":"80361"},"id":"1737368956554021"}
{"name":"Enadive Bali Diving","location":{"city":"Denpasar","country":"Indonesia","latitude":-8.7038504126867,"longitude":115.25619506836,"street":"Jl. Tirta No.1 Sanur","zip":"80227"},"id":"1478674759102260"}
{"name":"Blue Corner Dive","location":{"city":"Klungkung","country":"Indonesia","latitude":-8.666391351614,"longitude":115.44893586362,"street":"Jungutbatu Village Nusa Lembongan Island"},"id":"138353649564003"}
{"name":"Bali Hai Diving","location":{"city":"Denpasar","country":"Indonesia","latitude":-8.64073,"longitude":115.252737,"street":"Benoa Harbour"},"id":"863827613744173"}
{"name":"Padang Bai ... Mola mola dive site","location":{"city":"Manggis","country":"Indonesia","latitude":-8.529802,"longitude":115.511079},"id":"292667934174197"}
{"name":"KLM. Tambora Dive Cruises","location":{"city":"Ternate","country":"Indonesia","latitude":0.7844995854063,"longitude":127.38405070481},"id":"192198830934261"}
{"name":"KLM. Tambora Dive Cruises","location":{"city":"Sorong","country":"Indonesia","latitude":-0.8820756223176,"longitude":131.2675316166},"id":"161770797318214"}
{"name":"Global Dive Centre","location":{"city":"Buleleng","country":"Indonesia","latitude":-8.1629,"longitude":114.4372,"street":"Jalan Raya Seririt-Gilimanuk","zip":"81155"},"id":"121684888231219"}
{"name":"Sea Star Dive Center","location":{"city":"Denpasar","country":"Indonesia","latitude":-8.712269,"longitude":115.171033,"street":"Jalan Benesari 7","zip":"80361"},"id":"521147568056578"}
{"name":"Oile","location":{"city":"Gorontalo","country":"Indonesia","latitude":0.54509549333333,"longitude":123.06467648,"street":"Tanjung Oile"},"id":"1698077703748301"}
{"name":"Lumbalumba Diving - Manado","location":{"city":"Mokupa","country":"Indonesia","latitude":1.4231195833393,"longitude":124.71922159195},"id":"116913184987819"}
{"name":"Diversia Diving","location":{"city":"Lombok","country":"Indonesia","latitude":-8.3538467823412,"longitude":116.04313412923,"street":"jalan raya trawangan","zip":"83125"},"id":"544078918981968"}
{"name":"Watersport Tanjung Benoa","location":{"city":"Denpasar","country":"Indonesia","latitude":-8.7618992020217,"longitude":115.22273182869,"street":"Jalan Segara Geni No 3 Tanjung Benoa,Nusa Dua,Bali,Indonesia","zip":"80361"},"id":"745851158795531"}
{"name":"Neptune Scuba Diving","location":{"city":"Sanur","country":"Indonesia","latitude":-8.7069858766667,"longitude":115.24577634667,"street":"Jalan Suka Merta","zip":"80228"},"id":"1739987856244402"}
{"name":"Siren Diving Lembongan","location":{"city":"Klungkung","country":"Indonesia","latitude":-8.6923116905012,"longitude":115.44072031975,"street":"Lembongan Village","zip":"80771"},"id":"450709051942230"}
{"name":"Diving Resort Noble Bali Tulamben","location":{"city":"Bali","country":"Indonesia","latitude":-8.2801716252936,"longitude":115.59436398602,"street":"tulamben kubu karangasem","zip":"80853"},"id":"344688798950787"}
{"name":"AquaMarine Diving - Bali","location":{"city":"Kuta","country":"Indonesia","latitude":-8.6727512074359,"longitude":115.16294393921,"street":"Jl Petitenget 2A","zip":"80361"},"id":"254390704646019"}
{"name":"Nusantara Diving Center (NDC) Resort And Spa-Manado","location":{"city":"Molas","country":"Indonesia","latitude":1.529418,"longitude":124.838804,"street":"Batusaiki","zip":"95242"},"id":"381505961873982"}
{"name":"Wicked Diving Komodo","location":{"city":"Labuanbajo","country":"Indonesia","latitude":-8.4957402754545,"longitude":119.87866529909,"street":"Jalan Soekarno Hatta","zip":"86554"},"id":"853749808003855"}
{"name":"Adventure Scuba Diving Bali","location":{"city":"Denpasar","country":"Indonesia","latitude":-8.68529,"longitude":115.17049,"street":"Jl Dewi Saraswati No.50 Seminyak","zip":"80361"},"id":"455132051240306"}
{"name":"Zero Gravity Diving - Bali - Diving Indo","location":{"city":"Sanur","country":"Indonesia","latitude":-8.7054747,"longitude":115.2524701,"street":"Zero Gravity Diving, C/O Diving Indo, Jl. Danau Poso 53A","zip":"80228"},"id":"1687922718117792"}
{"name":"Pulau abang diving spot","location":{"city":"Batam","country":"Indonesia","latitude":1.131691,"longitude":104.03135095,"street":"pulau abang, galang","zip":"29481"},"id":"1640434922891949"}
{"name":"Diving Tour Indonesia","location":{"city":"Denpasar","country":"Indonesia","latitude":-7.0136679275666,"longitude":115.3125,"street":"Jalan penyaringan"},"id":"1734576176857175"}
{"name":"Mikumba Diving","location":{"city":"Denpasar","country":"Indonesia","latitude":-8.6819,"longitude":115.20411,"street":"Jalan Pulau"},"id":"427159154121447"}
{"name":"Pulau Kera, Beach n Diving Area, Kupang, NTT","location":{"city":"Kupang","country":"Indonesia","latitude":-10.1861,"longitude":123.54865,"street":"MESS BA MACAN KUMBANG TNI AL OSMOK - KUPANG"},"id":"244120655694148"}
{"name":"Diving Charter Komodo","location":{"city":"Labuanbajo","country":"Indonesia","latitude":-8.7060667,"longitude":115.2560121,"zip":"0385"},"id":"1061539973867999"}
{"name":"Komodo Resort & Diving Club","location":{"city":"Komodo","country":"Indonesia","latitude":-8.5163466001092,"longitude":119.71437242478,"street":"Sebayur  Island, Komodo National Park","zip":"86754"},"id":"171213296244323"}
{"name":"Diving Holiday Bintan","location":{"city":"Riau","country":"Indonesia","latitude":0.783333,"longitude":104.55,"street":"KM40 Desa Teluk Bakau Bintan","zip":"29153"},"id":"721681041209048"}
{"name":"King Neptune Scuba Diving & Water Sport - Batam","location":{"city":"Batam","country":"Indonesia","latitude":1.1069202282913,"longitude":104.04524283524,"zip":"29463"},"id":"227840470619047"}
{"name":"Diving Resort Bintan","location":{"city":"Riau","country":"Indonesia","latitude":0.783333,"longitude":104.55,"street":"bintan","zip":"29153"},"id":"589249327840186"}
{"name":"Arina Diving Accessories","location":{"city":"Batam","country":"Indonesia","latitude":1.08333,"longitude":104.033,"street":"Batu Aji, Riau","zip":"29432"},"id":"256367251202574"}
{"name":"Bali Diving Paradise","location":{"city":"Manggis","country":"Indonesia","latitude":-8.5075963801758,"longitude":115.56350648403,"street":"Jalan Raya Candidasa Nyuh Tebel","zip":"80871"},"id":"1390485471251078"}
{"name":"Ihasia Diving Komodo","location":{"city":"Labuanbajo","country":"Indonesia","latitude":-8.4970332043726,"longitude":119.87950801849,"street":"Jl. Soekarno Hatta","zip":"86554"},"id":"1447243648636450"}
{"name":"Bali Secrets Diving Safaris","location":{"city":"Sanur","country":"Indonesia","latitude":-8.6820354,"longitude":115.2588272,"street":"Jln Danau Buyan no 47","zip":"80228"},"id":"278899412298040"}
{"name":"OK Divers","location":{"city":"Padangbai","country":"Indonesia","latitude":-8.5325839481622,"longitude":115.50754487514,"street":"Jl. Silayukti 6","zip":"80872"},"id":"373032286102307"}
{"name":"Atlantis International Bali","location":{"city":"Sanur","country":"Indonesia","latitude":-8.7044938766045,"longitude":115.25700311918,"street":"Jalan By Pass I Gusti Ngurah Rai 96","zip":"80228"},"id":"118120234963482"}
{"name":"Manta Point Divers Indonesia","location":{"city":"Jakarta","country":"Indonesia","latitude":-6.2734950351167,"longitude":106.81644201279,"street":"Jl Benda Raya No.1 Unit D","zip":"12560"},"id":"1284878414937385"}
{"name":"Kinaari Resort","location":{"city":"Tarabitan","country":"Indonesia","latitude":1.7498380141791,"longitude":124.99020010791,"street":"Tarabitan, Likupang,North Minahasa"},"id":"774735009319724"}
{"name":"Underwater Tribe","location":{"city":"Sanur","country":"Indonesia","latitude":-8.6821176230648,"longitude":115.25839283503,"street":"Jalan Danau Buyan 47","zip":"80228"},"id":"313339892040009"}
{"name":"Diving Range Golf Cilandak","location":{"city":"Jakarta","country":"Indonesia","latitude":-6.34233,"longitude":106.80396},"id":"319306321490548"}
{"name":"Gili Scuba Diving","location":{"city":"Lombok","country":"Indonesia","latitude":-8.5,"longitude":116.667,"street":"Jl. Bangsal"},"id":"1607207569594069"}
{"name":"BMR Dive And Water Sports","location":{"city":"Denpasar","country":"Indonesia","latitude":-8.758029,"longitude":115.221615,"street":"Jl. Pratama No. 99X, Tanjung Benoa, Bali","zip":"80361"},"id":"1008730789196686"}
{"name":"Trawangan Dive, Gili Trawangan","location":{"city":"Lombok","country":"Indonesia","latitude":-8.3494885786111,"longitude":116.04323095597,"street":"Trawangan Dive, Gili Trawangan","zip":"83352"},"id":"109954452417513"}
{"name":"North Coast BMR Dive And Water Sport","location":{"city":"Badung","country":"Indonesia","latitude":-8.7535735362268,"longitude":115.21988195109,"street":"Jalan Segara Lor 15","zip":"80361"},"id":"126253320897010"}
{"name":"Tauch Terminal Tulamben","location":{"city":"Karangasem","country":"Indonesia","latitude":-8.2515000925959,"located_in":"223088221036126","longitude":115.57574272156,"street":"Tulamben beach","zip":"80853"},"id":"808909475832668"}
{"name":"Benoa Tirta Harum Dive & Watersport","location":{"city":"Badung","country":"Indonesia","latitude":-8.7841453112796,"longitude":115.22614837732,"street":"Jl. Pratama No. 36X Nusa Dua","zip":"80363"},"id":"1400431116857500"}
{"name":"\"Boboca Diving Club\" Pantai Malalayang","location":{"city":"Manado","country":"Indonesia","latitude":1.45868295,"longitude":124.839352355,"street":"malalayang"},"id":"395818573847256"}
{"name":"Bali Hai Diving Adventures - Map Location","location":{"city":"Benoa","country":"Indonesia","latitude":-8.741676,"longitude":115.212354,"street":"Jalan Wisata Tirta","zip":"80001"},"id":"412630515458948"}
{"name":"BALI Diving & snorkling at menjangan island","location":{"city":"Jimbaran","country":"Indonesia","latitude":-8.766043,"longitude":115.196974,"street":"bali kencana resort 111 c4","zip":"80361"},"id":"218760708294185"}
{"name":"Blue Marine Dive Resort","location":{"city":"Lombok","country":"Indonesia","latitude":-8.3452607477255,"longitude":116.0476886673,"street":"Gili Air","zip":"83352"},"id":"488776457868858"}
{"name":"Nyelam Yuk by DeepSea Dive","location":{"city":"Jakarta","country":"Indonesia","latitude":-6.2516999,"longitude":106.7910614,"street":"Jl. Radio Dalam Raya No.3"},"id":"1614158938866154"}
{"name":"Lembongan Discovery Dive","location":{"city":"Lembongan","country":"Indonesia","latitude":-8.6652027808085,"longitude":115.46098709106,"street":"Mangrove Beach ( Paradise beach)","zip":"80771"},"id":"479370405439995"}
{"name":"Red Diving","location":{"city":"Bogor","country":"Indonesia","latitude":-6.58702,"longitude":106.78771,"street":"Ciwaringin tanah sewa Jln. Ardio Gg. Madrasah No.12","zip":"16124"},"id":"1312009262220568"}
{"name":"Tuke Menjangan guest house and Diving buddy","location":{"city":"Singaraja","country":"Indonesia","latitude":-8.1435,"longitude":114.54094,"street":"Toke Menjangan, jalan Garuda, desa Pejarakan, Grokgak, Banyuwedang North west Bali, Indonesia","zip":"81155"},"id":"958810627549173"}
{"name":"Mola Scuba Dive Wakatobi","location":{"city":"Wanci","country":"Indonesia","latitude":-5.31667,"longitude":123.533,"street":"Jl.Dusun Bunging Desa Mola Bahari","zip":"93791"},"id":"1653096608352637"}
{"name":"Fisheries Diving Club UPS Tegal","location":{"city":"Adiwerna","country":"Indonesia","latitude":-6.86667,"longitude":109.133,"street":"Jl. halmahera Dusun Mintaragen 1Km dari kota Tegal"},"id":"875154059178516"}
{"name":"Bali Aqua Diving","location":{"city":"Denpasar","country":"Indonesia","latitude":-8.707039,"longitude":115.25423,"street":"Jalan Sekar Waru","zip":"80228"},"id":"762824107150709"}
{"name":"Oseanografi diving club pulau pari","location":{"city":"Jakarta","country":"Indonesia","latitude":-5.860466192508,"longitude":106.61364555359,"street":"LIPI UPT LPKSDMO PULAU PARI","zip":"14530"},"id":"222977404562473"}
{"name":"CUSTOMS DIVING CLUB","location":{"city":"Denpasar","country":"Indonesia","latitude":-8.6658384,"longitude":115.2390844,"street":"Jln. Dewi Madri X Blok B No. 3","zip":"80235"},"id":"106604054620"}
{"name":"Bali Tec Diving","location":{"city":"Sanur","country":"Indonesia","latitude":-8.704241,"longitude":115.251759,"street":"Jl. Danau Poso 40","zip":"80228"},"id":"206425332718774"}
{"name":"401 DIVES Pemuteran Bali","location":{"city":"Singaraja","country":"Indonesia","latitude":-8.144992250024,"longitude":114.65887248516,"street":"Adirahayu Dive Center","zip":"81155"},"id":"103757731586"}
{"name":"Joe's Gone Diving","location":{"city":"Sanur","country":"Indonesia","latitude":-8.6897535,"longitude":115.2585373,"street":"Jalan Bypass Ngurah Rai 44a","zip":"80228"},"id":"161946313831811"}
{"name":"Bali IDC with Joe's Gone Diving","location":{"city":"Sanur","country":"Indonesia","latitude":-8.6897538,"longitude":115.2585351,"street":"Jl. By Pass Ngurah Rai 44A","zip":"80228"},"id":"1791478894405482"}
